[{"name": "Budapest", "country": "", "type": "", "lat": 47.4983815, "lon": 19.0404707, "elevation": 17364}, {"name": "Moszkva", "country": "", "type": "", "lat": 55.75124399999999, "lon": 37.618423, "elevation": 7554}, {"name": "Strasbourg", "country": "", "type": "", "lat": 48.58361, "lon": 7.748060000000001, "elevation": 6227}, {"name": "Moszkva t\u00e9r", "country": "", "type": "", "lat": 47.50697, "lon": 19.0242, "elevation": 5881}, {"name": "V\u00e1rosliget", "country": "", "type": "", "lat": 47.513870000000004, "lon": 19.08527, "elevation": 3651}, {"name": "Tatab\u00e1nya", "country": "", "type": "", "lat": 47.5837788, "lon": 18.3980308, "elevation": 3238}, {"name": "Budai v\u00e1r", "country": "", "type": "", "lat": 47.498999999999995, "lon": 19.0363, "elevation": 3114}, {"name": "Balaton", "country": "", "type": "", "lat": 48.0944507, "lon": 20.3060574, "elevation": 2975}, {"name": "R\u00f6szke", "country": "", "type": "", "lat": 46.18724270000001, "lon": 20.0354983, "elevation": 2973}, {"name": "Szabads\u00e1g H\u00edd", "country": "", "type": "", "lat": 47.4858, "lon": 19.05497, "elevation": 2966}, {"name": "Br\u00fcsszel", "country": "", "type": "", "lat": 50.8503396, "lon": 4.3517103, "elevation": 2852}, {"name": "Szolnok", "country": "", "type": "", "lat": 47.1754555, "lon": 20.1946818, "elevation": 2505}, {"name": "Tata", "country": "", "type": "", "lat": 47.6500863, "lon": 18.3181275, "elevation": 2354}, {"name": "Eger", "country": "", "type": "", "lat": 47.8989887, "lon": 20.3743665, "elevation": 2155}, {"name": "Kaposv\u00e1r", "country": "", "type": "", "lat": 46.35646920000001, "lon": 17.788688600000004, "elevation": 2119}, {"name": "Paks", "country": "", "type": "", "lat": 46.6229468, "lon": 18.8589364, "elevation": 2109}, {"name": "Szombathely", "country": "", "type": "", "lat": 47.2291184, "lon": 16.6187625, "elevation": 1964}, {"name": "London", "country": "", "type": "", "lat": 51.509865000000005, "lon": -0.118092, "elevation": 1813}, {"name": "Polg\u00e1r", "country": "", "type": "", "lat": 47.8707939, "lon": 21.1141032, "elevation": 1737}, {"name": "Manchester", "country": "", "type": "", "lat": 53.483959, "lon": -2.244644, "elevation": 1591}, {"name": "P\u00e9cs", "country": "", "type": "", "lat": 46.0763222, "lon": 18.228074600000006, "elevation": 1558}, {"name": "Liverpool", "country": "", "type": "", "lat": 53.400002, "lon": -2.983333, "elevation": 1518}, {"name": "V\u00e9rtessz\u0151l\u0151s", "country": "", "type": "", "lat": 47.6206061, "lon": 18.3813459, "elevation": 1509}, {"name": "Gy\u0151r", "country": "", "type": "", "lat": 47.687609, "lon": 17.6346815, "elevation": 1380}, {"name": "B\u00e9cs", "country": "", "type": "", "lat": 48.210033, "lon": 16.363449, "elevation": 1319}, {"name": "Szeged", "country": "", "type": "", "lat": 46.25463120000001, "lon": 20.1486016, "elevation": 1275}, {"name": "Szabolcs-Szatm\u00e1r-Bereg", "country": "", "type": "", "lat": 48.0, "lon": 22.16667, "elevation": 1251}, {"name": "B\u00e9k\u00e9scsaba", "country": "", "type": "", "lat": 46.6849789, "lon": 21.0866918, "elevation": 1232}, {"name": "P\u00e1rizs", "country": "", "type": "", "lat": 48.864715999999994, "lon": 2.349014, "elevation": 1112}, {"name": "Washington", "country": "", "type": "", "lat": 38.889931, "lon": -77.009003, "elevation": 1104}, {"name": "Heves", "country": "", "type": "", "lat": 47.5957526, "lon": 20.2897722, "elevation": 1098}, {"name": "New York", "country": "", "type": "", "lat": 40.73061, "lon": -73.935242, "elevation": 1080}, {"name": "Zugl\u00f3", "country": "", "type": "", "lat": 47.51758, "lon": 19.10549, "elevation": 1068}, {"name": "N\u00f3gr\u00e1d", "country": "", "type": "", "lat": 47.9094266, "lon": 19.0478895, "elevation": 1011}, {"name": "B\u00e1nk\u00fat", "country": "", "type": "", "lat": 46.50399820000001, "lon": 21.0948593, "elevation": 921}, {"name": "Ferencv\u00e1ros", "country": "", "type": "", "lat": 47.477540000000005, "lon": 19.09081, "elevation": 906}, {"name": "Debrecen", "country": "", "type": "", "lat": 47.531399, "lon": 21.6259782, "elevation": 892}, {"name": "Szentes", "country": "", "type": "", "lat": 46.6524049, "lon": 20.2566408, "elevation": 886}, {"name": "Szabadsz\u00e1ll\u00e1s", "country": "", "type": "", "lat": 46.8752316, "lon": 19.2225016, "elevation": 875}, {"name": "Bali", "country": "", "type": "", "lat": -8.409517999999998, "lon": 115.18891599999999, "elevation": 874}, {"name": "Somogyudvarhely", "country": "", "type": "", "lat": 46.1773427, "lon": 17.1909701, "elevation": 843}, {"name": "Berlin", "country": "", "type": "", "lat": 52.520008, "lon": 13.404954, "elevation": 840}, {"name": "Barcelona", "country": "", "type": "", "lat": 41.390205, "lon": 2.154007, "elevation": 830}, {"name": "Sopron", "country": "", "type": "", "lat": 47.6803063, "lon": 16.5983457, "elevation": 784}, {"name": "Miskolc", "country": "", "type": "", "lat": 48.10315170000001, "lon": 20.7902158, "elevation": 670}, {"name": "Veszpr\u00e9m", "country": "", "type": "", "lat": 47.0916334, "lon": 17.911600699999994, "elevation": 668}, {"name": "Buda", "country": "", "type": "", "lat": 47.6101406, "lon": 20.7708973, "elevation": 565}, {"name": "Helsinki", "country": "", "type": "", "lat": 60.3694, "lon": 24.60851, "elevation": 553}, {"name": "Hatvan", "country": "", "type": "", "lat": 47.6683971, "lon": 19.6743874, "elevation": 534}, {"name": "Hollywood", "country": "", "type": "", "lat": 34.090697999999996, "lon": -118.386002, "elevation": 529}, {"name": "Kecskem\u00e9t", "country": "", "type": "", "lat": 46.9080769, "lon": 19.6928133, "elevation": 522}, {"name": "Leicester", "country": "", "type": "", "lat": 52.633331000000005, "lon": -1.133333, "elevation": 520}, {"name": "Mexik\u00f3", "country": "", "type": "", "lat": 47.7907493, "lon": 18.7916522, "elevation": 513}, {"name": "Szarvas", "country": "", "type": "", "lat": 47.8982343, "lon": 20.2543887, "elevation": 501}, {"name": "Sz\u00e9kesfeh\u00e9rv\u00e1r", "country": "", "type": "", "lat": 47.1910169, "lon": 18.410811, "elevation": 465}, {"name": "Trianon", "country": "", "type": "", "lat": 48.801407, "lon": 2.130122, "elevation": 459}, {"name": "Szabolcs", "country": "", "type": "", "lat": 48.1718359, "lon": 21.4954557, "elevation": 449}, {"name": "Peking", "country": "", "type": "", "lat": 39.991844, "lon": 116.31017299999999, "elevation": 446}, {"name": "Felcs\u00fat", "country": "", "type": "", "lat": 47.4545349, "lon": 18.5862386, "elevation": 444}, {"name": "H\u00f3dmez\u0151v\u00e1s\u00e1rhely", "country": "", "type": "", "lat": 46.4171344, "lon": 20.3196068, "elevation": 434}, {"name": "Csongr\u00e1d", "country": "", "type": "", "lat": 46.7096643, "lon": 20.1531646, "elevation": 416}, {"name": "Csepel", "country": "", "type": "", "lat": 47.42303, "lon": 19.07837, "elevation": 405}, {"name": "Madrid", "country": "", "type": "", "lat": 40.416775, "lon": -3.70379, "elevation": 403}, {"name": "Baranya", "country": "", "type": "", "lat": 46.0, "lon": 18.5, "elevation": 400}, {"name": "Zala", "country": "", "type": "", "lat": 46.7392974, "lon": 18.0014999, "elevation": 389}, {"name": "Brighton", "country": "", "type": "", "lat": 50.82793, "lon": -0.168749, "elevation": 379}, {"name": "\u00dajpest", "country": "", "type": "", "lat": 47.56713970000001, "lon": 19.0920734, "elevation": 372}, {"name": "\u00c9rd", "country": "", "type": "", "lat": 47.394890000000004, "lon": 18.913610000000002, "elevation": 345}, {"name": "Si\u00f3fok", "country": "", "type": "", "lat": 46.9071694, "lon": 18.0541598, "elevation": 344}, {"name": "B\u00e9lap\u00e1tfalva", "country": "", "type": "", "lat": 48.052978, "lon": 20.348536300000006, "elevation": 326}, {"name": "Andr\u00e1ssy \u00fat", "country": "", "type": "", "lat": 47.51027, "lon": 19.07098, "elevation": 323}, {"name": "Somogy", "country": "", "type": "", "lat": 46.1243598, "lon": 18.3067587, "elevation": 323}, {"name": "Szilv\u00e1sv\u00e1rad", "country": "", "type": "", "lat": 48.1033386, "lon": 20.3871297, "elevation": 320}, {"name": "M\u00fcnchen", "country": "", "type": "", "lat": 48.69668, "lon": 13.46314, "elevation": 315}, {"name": "J\u00e1nk", "country": "", "type": "", "lat": 47.937281, "lon": 22.6595018, "elevation": 314}, {"name": "Wiesbaden", "country": "", "type": "", "lat": 50.078216999999995, "lon": 8.239761, "elevation": 308}, {"name": "Bukarest", "country": "", "type": "", "lat": 44.43225, "lon": 26.10626, "elevation": 300}, {"name": "Tolna", "country": "", "type": "", "lat": 46.4226584, "lon": 18.7887741, "elevation": 293}, {"name": "Ciprus", "country": "", "type": "", "lat": 46.397659999999995, "lon": 19.68188, "elevation": 291}, {"name": "Velence", "country": "", "type": "", "lat": 46.89177120000001, "lon": 16.6602411, "elevation": 257}, {"name": "Ny\u00edregyh\u00e1za", "country": "", "type": "", "lat": 47.9557802, "lon": 21.7167982, "elevation": 257}, {"name": "Belgr\u00e1d", "country": "", "type": "", "lat": 43.82188, "lon": 18.3604, "elevation": 256}, {"name": "Pozsony", "country": "", "type": "", "lat": 48.1516988, "lon": 17.1093063, "elevation": 254}, {"name": "Hidas", "country": "", "type": "", "lat": 46.2584081, "lon": 18.4965098, "elevation": 254}, {"name": "Kisv\u00e1rda", "country": "", "type": "", "lat": 48.2257593, "lon": 22.0784247, "elevation": 250}, {"name": "Margitsziget", "country": "", "type": "", "lat": 47.5272928, "lon": 19.0478668, "elevation": 247}, {"name": "Kijev", "country": "", "type": "", "lat": 50.4546585, "lon": 30.5237999, "elevation": 231}, {"name": "Teher\u00e1n", "country": "", "type": "", "lat": 35.715298, "lon": 51.404343, "elevation": 224}, {"name": "\u00d3buda", "country": "", "type": "", "lat": 47.5385916, "lon": 19.0395611, "elevation": 222}, {"name": "Szeksz\u00e1rd", "country": "", "type": "", "lat": 46.3484884, "lon": 18.701663, "elevation": 219}, {"name": "K\u00f6rmend", "country": "", "type": "", "lat": 47.0126655, "lon": 16.6010475, "elevation": 218}, {"name": "Kom\u00e1rom", "country": "", "type": "", "lat": 47.7417349, "lon": 18.1218256, "elevation": 214}, {"name": "Chicago", "country": "", "type": "", "lat": 41.8781136, "lon": -87.62979820000001, "elevation": 211}, {"name": "Duna\u00fajv\u00e1ros", "country": "", "type": "", "lat": 46.9670241, "lon": 18.9397061, "elevation": 206}, {"name": "Szerencs", "country": "", "type": "", "lat": 48.1633851, "lon": 21.201088100000003, "elevation": 202}, {"name": "Di\u00f3sgy\u0151r", "country": "", "type": "", "lat": 48.0953586, "lon": 20.7013503, "elevation": 189}, {"name": "Mez\u0151k\u00f6vesd", "country": "", "type": "", "lat": 47.8097525, "lon": 20.5660889, "elevation": 189}, {"name": "J\u00e1sz-Nagykun-Szolnok", "country": "", "type": "", "lat": 47.25, "lon": 20.5, "elevation": 187}, {"name": "Hars\u00e1ny", "country": "", "type": "", "lat": 47.9684365, "lon": 20.740487100000006, "elevation": 185}, {"name": "Zalaegerszeg", "country": "", "type": "", "lat": 46.8415803, "lon": 16.8456316, "elevation": 184}, {"name": "Ankara", "country": "", "type": "", "lat": 39.91987, "lon": 32.85427, "elevation": 183}, {"name": "Szentendre", "country": "", "type": "", "lat": 47.6677606, "lon": 19.0760467, "elevation": 178}, {"name": "Hajd\u00fa-Bihar", "country": "", "type": "", "lat": 47.41667, "lon": 21.5, "elevation": 174}, {"name": "Esztergom", "country": "", "type": "", "lat": 47.7856977, "lon": 18.7403349, "elevation": 171}, {"name": "Lampedusa", "country": "", "type": "", "lat": 35.50142, "lon": 12.609639999999999, "elevation": 170}, {"name": "Em\u0151d", "country": "", "type": "", "lat": 47.9339466, "lon": 20.8165452, "elevation": 164}, {"name": "Kom\u00e1rom-Esztergom", "country": "", "type": "", "lat": 47.6117055, "lon": 18.3335459, "elevation": 156}, {"name": "Sevilla", "country": "", "type": "", "lat": 37.3890924, "lon": -5.984458900000001, "elevation": 156}, {"name": "Kapuv\u00e1r", "country": "", "type": "", "lat": 47.59370429999999, "lon": 17.0274824, "elevation": 156}, {"name": "Leeds", "country": "", "type": "", "lat": 53.801277, "lon": -1.548567, "elevation": 154}, {"name": "Wimbledon", "country": "", "type": "", "lat": 51.418339, "lon": -0.220629, "elevation": 153}, {"name": "Teleki", "country": "", "type": "", "lat": 46.9306388, "lon": 16.6595331, "elevation": 152}, {"name": "Treblinka", "country": "", "type": "", "lat": 52.66202, "lon": 22.02176, "elevation": 150}, {"name": "Csorna", "country": "", "type": "", "lat": 46.5560449, "lon": 19.1492499, "elevation": 149}, {"name": "Balatonf\u00fcred", "country": "", "type": "", "lat": 46.9567254, "lon": 17.888892000000006, "elevation": 148}, {"name": "J\u00f3zsefv\u00e1ros", "country": "", "type": "", "lat": 46.1878385, "lon": 18.9400337, "elevation": 147}, {"name": "Zar\u00e1ndok", "country": "", "type": "", "lat": 47.91667, "lon": 19.1, "elevation": 146}, {"name": "Keszthely", "country": "", "type": "", "lat": 46.7675081, "lon": 17.2462801, "elevation": 141}, {"name": "Mosonmagyar\u00f3v\u00e1r", "country": "", "type": "", "lat": 47.8731793, "lon": 17.2722342, "elevation": 141}, {"name": "Fukuyama", "country": "", "type": "", "lat": 34.4407, "lon": 133.39762, "elevation": 140}, {"name": "Gy\u00f6ngy\u00f6s", "country": "", "type": "", "lat": 47.7799838, "lon": 19.9291176, "elevation": 139}, {"name": "V\u00e1rkert", "country": "", "type": "", "lat": 47.78333, "lon": 18.98333, "elevation": 138}, {"name": "Dunakeszi", "country": "", "type": "", "lat": 47.6316697, "lon": 19.1294055, "elevation": 137}, {"name": "Budafok", "country": "", "type": "", "lat": 47.42753010000001, "lon": 19.026077800000003, "elevation": 136}, {"name": "Moh\u00e1cs", "country": "", "type": "", "lat": 45.9933836, "lon": 18.6821079, "elevation": 135}, {"name": "los Angeles", "country": "", "type": "", "lat": 34.052234999999996, "lon": -118.243683, "elevation": 133}, {"name": "Hungaroring", "country": "", "type": "", "lat": 47.58173, "lon": 19.25057, "elevation": 131}, {"name": "Cseng\u0151", "country": "", "type": "", "lat": 48.0772807, "lon": 19.8962983, "elevation": 130}, {"name": "Baku", "country": "", "type": "", "lat": 40.409264, "lon": 49.867092, "elevation": 127}, {"name": "\u00d6rk\u00e9ny", "country": "", "type": "", "lat": 47.1297585, "lon": 19.4309024, "elevation": 126}, {"name": "Salg\u00f3tarj\u00e1n", "country": "", "type": "", "lat": 48.09606760000001, "lon": 19.8005642, "elevation": 123}, {"name": "Erzs\u00e9bet H\u00edd", "country": "", "type": "", "lat": 47.49096, "lon": 19.04926, "elevation": 122}, {"name": "V\u00e1c", "country": "", "type": "", "lat": 47.775909999999996, "lon": 19.136120000000002, "elevation": 121}, {"name": "Blaha Lujza t\u00e9r", "country": "", "type": "", "lat": 47.49665, "lon": 19.07002, "elevation": 121}, {"name": "San Francisco", "country": "", "type": "", "lat": 37.773972, "lon": -122.431297, "elevation": 118}, {"name": "Balatonf\u00f6ldv\u00e1r", "country": "", "type": "", "lat": 46.8491197, "lon": 17.879240300000006, "elevation": 118}, {"name": "Csepel-sziget", "country": "", "type": "", "lat": 47.2859027, "lon": 18.9532602, "elevation": 117}, {"name": "Valencia", "country": "", "type": "", "lat": 39.469907, "lon": -0.376288, "elevation": 115}, {"name": "Cegl\u00e9d", "country": "", "type": "", "lat": 47.1716447, "lon": 19.7977516, "elevation": 114}, {"name": "Krakk\u00f3", "country": "", "type": "", "lat": 47.4071239, "lon": 19.2876554, "elevation": 113}, {"name": "Stockholm", "country": "", "type": "", "lat": 59.334591, "lon": 18.06324, "elevation": 112}, {"name": "Toronto", "country": "", "type": "", "lat": 43.651070000000004, "lon": -79.347015, "elevation": 112}, {"name": "Kazincbarcika", "country": "", "type": "", "lat": 48.2544414, "lon": 20.6223251, "elevation": 110}, {"name": "Bugyi", "country": "", "type": "", "lat": 47.221978, "lon": 19.149033600000006, "elevation": 105}, {"name": "Balatonbogl\u00e1r", "country": "", "type": "", "lat": 46.7775271, "lon": 17.6561769, "elevation": 105}, {"name": "K\u0151b\u00e1nya", "country": "", "type": "", "lat": 48.00972, "lon": 19.926379999999998, "elevation": 104}, {"name": "Nairobi", "country": "", "type": "", "lat": -22.726570000000002, "lon": 30.0791, "elevation": 100}, {"name": "N\u00e9pliget", "country": "", "type": "", "lat": 47.4787886, "lon": 19.108735, "elevation": 99}, {"name": "Baja", "country": "", "type": "", "lat": 46.6249519, "lon": 17.372601100000004, "elevation": 97}, {"name": "Salzburg", "country": "", "type": "", "lat": 47.811195, "lon": 13.033228999999999, "elevation": 96}, {"name": "Sydney", "country": "", "type": "", "lat": -33.865142999999996, "lon": 151.2099, "elevation": 94}, {"name": "P\u00f3cspetri", "country": "", "type": "", "lat": 47.8812739, "lon": 21.993548, "elevation": 93}, {"name": "Kispest", "country": "", "type": "", "lat": 47.4484411, "lon": 19.1465176, "elevation": 93}, {"name": "Boston", "country": "", "type": "", "lat": 42.361145, "lon": -71.05708299999999, "elevation": 92}, {"name": "Gencsap\u00e1ti", "country": "", "type": "", "lat": 47.2888131, "lon": 16.594411800000003, "elevation": 92}, {"name": "J\u00e1szber\u00e9ny", "country": "", "type": "", "lat": 47.5030505, "lon": 19.9117887, "elevation": 90}, {"name": "Zam\u00e1rdi", "country": "", "type": "", "lat": 46.8800183, "lon": 17.945992800000006, "elevation": 89}, {"name": "Koml\u00f3", "country": "", "type": "", "lat": 46.1911673, "lon": 18.2613778, "elevation": 89}, {"name": "Bologna", "country": "", "type": "", "lat": 44.498955, "lon": 11.327591, "elevation": 88}, {"name": "Velencei-t\u00f3", "country": "", "type": "", "lat": 47.213640000000005, "lon": 18.60944, "elevation": 88}, {"name": "V\u00e1rosmajor", "country": "", "type": "", "lat": 47.50826, "lon": 19.01759, "elevation": 88}, {"name": "Oxford", "country": "", "type": "", "lat": 51.752022, "lon": -1.257677, "elevation": 87}, {"name": "G\u00f6d", "country": "", "type": "", "lat": 47.683240000000005, "lon": 19.13417, "elevation": 86}, {"name": "\u00c9szak-Magyarorsz\u00e1g", "country": "", "type": "", "lat": 47.9437605, "lon": 20.3212889, "elevation": 86}, {"name": "Tel-Aviv", "country": "", "type": "", "lat": 32.109333, "lon": 34.855499, "elevation": 85}, {"name": "Birkenau", "country": "", "type": "", "lat": 49.561040000000006, "lon": 8.70836, "elevation": 85}, {"name": "B\u00e9csi \u00fat", "country": "", "type": "", "lat": 47.6, "lon": 18.933329999999998, "elevation": 84}, {"name": "Soroks\u00e1r", "country": "", "type": "", "lat": 47.40254820000001, "lon": 19.118460100000004, "elevation": 84}, {"name": "Pannonhalma", "country": "", "type": "", "lat": 47.5502015, "lon": 17.7541679, "elevation": 83}, {"name": "Mark\u00f3", "country": "", "type": "", "lat": 47.69589439999999, "lon": 18.3775188, "elevation": 83}, {"name": "V\u00e1l", "country": "", "type": "", "lat": 47.36264, "lon": 18.67931, "elevation": 83}, {"name": "Orosh\u00e1za", "country": "", "type": "", "lat": 46.5603339, "lon": 20.6693477, "elevation": 83}, {"name": "Dachau", "country": "", "type": "", "lat": 48.26192, "lon": 11.4452, "elevation": 83}, {"name": "K\u00f6r\u00f6s", "country": "", "type": "", "lat": 46.7175, "lon": 20.18835, "elevation": 81}, {"name": "Dallas", "country": "", "type": "", "lat": 32.89748, "lon": -97.04044300000001, "elevation": 79}, {"name": "Tokaj", "country": "", "type": "", "lat": 48.1235534, "lon": 21.4113895, "elevation": 79}, {"name": "Middlesbrough", "country": "", "type": "", "lat": 54.53333000000001, "lon": -1.2, "elevation": 79}, {"name": "Balmaz\u00fajv\u00e1ros", "country": "", "type": "", "lat": 47.6116279, "lon": 21.3437378, "elevation": 79}, {"name": "Gell\u00e9rthegy", "country": "", "type": "", "lat": 47.4845654, "lon": 19.038769, "elevation": 78}, {"name": "Tura", "country": "", "type": "", "lat": 47.60935, "lon": 19.5949442, "elevation": 78}, {"name": "Hamburg", "country": "", "type": "", "lat": 53.551086, "lon": 9.993682000000002, "elevation": 77}, {"name": "Cambridge", "country": "", "type": "", "lat": 52.205276, "lon": 0.11916700000000001, "elevation": 77}, {"name": "Fiume", "country": "", "type": "", "lat": 45.328979, "lon": 14.457664000000001, "elevation": 76}, {"name": "Z\u00fcrich", "country": "", "type": "", "lat": 47.38283, "lon": 8.530710000000001, "elevation": 75}, {"name": "Angyalf\u00f6ld", "country": "", "type": "", "lat": 47.5383689, "lon": 19.082082, "elevation": 75}, {"name": "Ferihegy", "country": "", "type": "", "lat": 47.441505, "lon": 19.2367794, "elevation": 75}, {"name": "Kassa", "country": "", "type": "", "lat": 48.716384999999995, "lon": 21.261074, "elevation": 75}, {"name": "Kelenf\u00f6ld", "country": "", "type": "", "lat": 47.46517100000001, "lon": 19.0411082, "elevation": 74}, {"name": "M\u00e1lyi", "country": "", "type": "", "lat": 48.0147562, "lon": 20.8236937, "elevation": 74}, {"name": "R\u00f3zsadomb", "country": "", "type": "", "lat": 46.0299974, "lon": 18.2214056, "elevation": 74}, {"name": "Fony\u00f3d", "country": "", "type": "", "lat": 46.7467521, "lon": 17.54946, "elevation": 74}, {"name": "Tihany", "country": "", "type": "", "lat": 46.9122292, "lon": 17.8917574, "elevation": 72}, {"name": "Wolverhampton", "country": "", "type": "", "lat": 52.583330000000004, "lon": -2.11667, "elevation": 72}, {"name": "Putnok", "country": "", "type": "", "lat": 48.2942607, "lon": 20.4342869, "elevation": 71}, {"name": "Visegr\u00e1d", "country": "", "type": "", "lat": 47.7848912, "lon": 18.9705776, "elevation": 71}, {"name": "Mumbai", "country": "", "type": "", "lat": 18.959629999999997, "lon": 72.84962, "elevation": 71}, {"name": "Erzs\u00e9betv\u00e1ros", "country": "", "type": "", "lat": 47.3372608, "lon": 17.4589382, "elevation": 71}, {"name": "Dubaj", "country": "", "type": "", "lat": 25.276987, "lon": 55.296248999999996, "elevation": 70}, {"name": "Gyop\u00e1ros", "country": "", "type": "", "lat": 48.2874513, "lon": 21.4343944, "elevation": 70}, {"name": "Alp\u00e1r", "country": "", "type": "", "lat": 46.8174504, "lon": 19.9909454, "elevation": 70}, {"name": "Ljubljana", "country": "", "type": "", "lat": 46.05108, "lon": 14.50513, "elevation": 68}, {"name": "K\u00f6ln", "country": "", "type": "", "lat": 50.93835, "lon": 6.954269999999999, "elevation": 68}, {"name": "K\u0151szeg", "country": "", "type": "", "lat": 47.3894949, "lon": 16.5406843, "elevation": 67}, {"name": "Hegyeshalom", "country": "", "type": "", "lat": 47.9144882, "lon": 17.1558011, "elevation": 66}, {"name": "Miami", "country": "", "type": "", "lat": 25.761681, "lon": -80.191788, "elevation": 66}, {"name": "Szak\u00e1ly", "country": "", "type": "", "lat": 46.5244309, "lon": 18.3839101, "elevation": 66}, {"name": "Manhattan", "country": "", "type": "", "lat": 40.790279999999996, "lon": -73.95971999999999, "elevation": 66}, {"name": "Birmingham", "country": "", "type": "", "lat": 52.489470999999995, "lon": -1.898575, "elevation": 65}, {"name": "V\u00f6r\u00f6smarty t\u00e9r", "country": "", "type": "", "lat": 47.496590000000005, "lon": 19.05067, "elevation": 64}, {"name": "Szigetv\u00e1r", "country": "", "type": "", "lat": 46.0478884, "lon": 17.8048056, "elevation": 63}, {"name": "Balatonfenyves", "country": "", "type": "", "lat": 46.7176727, "lon": 17.4945314, "elevation": 62}, {"name": "Buda\u00f6rs", "country": "", "type": "", "lat": 47.4600185, "lon": 18.9541818, "elevation": 62}, {"name": "Darvas", "country": "", "type": "", "lat": 47.1003189, "lon": 21.3390173, "elevation": 60}, {"name": "Erzs\u00e9bet T\u00e9r", "country": "", "type": "", "lat": 46.71667, "lon": 20.83333, "elevation": 59}, {"name": "Gell\u00e9rt-hegy", "country": "", "type": "", "lat": 46.7, "lon": 17.1, "elevation": 59}, {"name": "Orf\u0171", "country": "", "type": "", "lat": 46.1380554, "lon": 18.1551995, "elevation": 59}, {"name": "Karcag", "country": "", "type": "", "lat": 47.314646, "lon": 20.9240941, "elevation": 58}, {"name": "B\u00e1csalm\u00e1s", "country": "", "type": "", "lat": 46.1274127, "lon": 19.3319128, "elevation": 58}, {"name": "Tam\u00e1si", "country": "", "type": "", "lat": 47.7219868, "lon": 18.5031894, "elevation": 58}, {"name": "D\u00e9l-Dun\u00e1nt\u00fal", "country": "", "type": "", "lat": 47.69676120000001, "lon": 19.0428095, "elevation": 58}, {"name": "Hoffenheim", "country": "", "type": "", "lat": 49.272040000000004, "lon": 8.838410000000001, "elevation": 58}, {"name": "Balatonalm\u00e1di", "country": "", "type": "", "lat": 47.035766, "lon": 18.0200896, "elevation": 57}, {"name": "\u00c9ger", "country": "", "type": "", "lat": 47.90955, "lon": 17.9635, "elevation": 57}, {"name": "Kistarcsa", "country": "", "type": "", "lat": 47.54473220000001, "lon": 19.2636378, "elevation": 56}, {"name": "baltimore", "country": "", "type": "", "lat": 54.567080000000004, "lon": -1.22335, "elevation": 56}, {"name": "Gy\u00e1l", "country": "", "type": "", "lat": 47.3845453, "lon": 19.2173066, "elevation": 56}, {"name": "Kupak", "country": "", "type": "", "lat": 48.2776556, "lon": 21.3966552, "elevation": 56}, {"name": "Szigetk\u00f6z", "country": "", "type": "", "lat": 47.83333, "lon": 17.5, "elevation": 55}, {"name": "Hungexpo", "country": "", "type": "", "lat": 47.491929999999996, "lon": 19.12321, "elevation": 55}, {"name": "B\u00e1rsonyos", "country": "", "type": "", "lat": 47.5089888, "lon": 17.921481600000003, "elevation": 55}, {"name": "Domb\u00f3v\u00e1r", "country": "", "type": "", "lat": 46.3778989, "lon": 18.1332865, "elevation": 55}, {"name": "T\u00f6k\u00f6l", "country": "", "type": "", "lat": 47.3226787, "lon": 18.9632427, "elevation": 54}, {"name": "Hong Kong", "country": "", "type": "", "lat": 22.302711, "lon": 114.17721599999999, "elevation": 493}, {"name": "Budakeszi", "country": "", "type": "", "lat": 47.5099444, "lon": 18.929382, "elevation": 53}, {"name": "Kisk\u0151r\u00f6s", "country": "", "type": "", "lat": 46.6206925, "lon": 19.2836756, "elevation": 53}, {"name": "T\u00f6r\u00f6kszentmikl\u00f3s", "country": "", "type": "", "lat": 47.1793568, "lon": 20.409153, "elevation": 52}, {"name": "Sv\u00e1bhegy", "country": "", "type": "", "lat": 47.7963236, "lon": 19.0192194, "elevation": 52}, {"name": "Hannover", "country": "", "type": "", "lat": 52.460834999999996, "lon": 9.685, "elevation": 52}, {"name": "N\u00fcrnberg", "country": "", "type": "", "lat": 49.4541, "lon": 11.0768, "elevation": 51}, {"name": "Mountain View", "country": "", "type": "", "lat": 37.386051, "lon": -122.083855, "elevation": 51}, {"name": "Mak\u00f3", "country": "", "type": "", "lat": 46.2150438, "lon": 20.4751022, "elevation": 50}, {"name": "Szigetszentmikl\u00f3s", "country": "", "type": "", "lat": 47.345765, "lon": 19.0409037, "elevation": 50}, {"name": "Hortob\u00e1gy", "country": "", "type": "", "lat": 47.5826139, "lon": 21.1525371, "elevation": 50}, {"name": "Buchenwald", "country": "", "type": "", "lat": 50.23153, "lon": 7.11199, "elevation": 50}, {"name": "Nyugat-Dun\u00e1nt\u00fal", "country": "", "type": "", "lat": 47.69752329999999, "lon": 19.0443872, "elevation": 50}, {"name": "Kiskunhalas", "country": "", "type": "", "lat": 46.4277979, "lon": 19.4834524, "elevation": 49}, {"name": "Szabadka", "country": "", "type": "", "lat": 46.58333, "lon": 21.183329999999998, "elevation": 48}, {"name": "burgenland", "country": "", "type": "", "lat": 47.84771, "lon": 16.526870000000002, "elevation": 48}, {"name": "Tapolca", "country": "", "type": "", "lat": 46.8820972, "lon": 17.4389619, "elevation": 48}, {"name": "\u00d3zd", "country": "", "type": "", "lat": 48.21667, "lon": 20.3, "elevation": 48}, {"name": "Rottenburg", "country": "", "type": "", "lat": 48.476290000000006, "lon": 8.93528, "elevation": 48}, {"name": "S\u00e1rv\u00e1r", "country": "", "type": "", "lat": 47.2517426, "lon": 16.9342165, "elevation": 48}, {"name": "M\u00f3rahalom", "country": "", "type": "", "lat": 46.2163238, "lon": 19.8894811, "elevation": 48}, {"name": "Krim", "country": "", "type": "", "lat": 44.957813, "lon": 34.109547, "elevation": 47}, {"name": "Kulikov", "country": "", "type": "", "lat": 49.99197, "lon": 24.04372, "elevation": 47}, {"name": "Bodorsz\u00e9k", "country": "", "type": "", "lat": 46.43443, "lon": 20.07614, "elevation": 47}, {"name": "Marcali", "country": "", "type": "", "lat": 46.5833484, "lon": 17.412300199999994, "elevation": 47}, {"name": "Tiszaf\u00fcred", "country": "", "type": "", "lat": 47.6130877, "lon": 20.7502258, "elevation": 47}, {"name": "\u00dcr\u00f6m", "country": "", "type": "", "lat": 47.5987004, "lon": 19.0134262, "elevation": 46}, {"name": "Melbourne", "country": "", "type": "", "lat": -37.840934999999995, "lon": 144.946457, "elevation": 46}, {"name": "De\u00e1k Ferenc T\u00e9r", "country": "", "type": "", "lat": 47.49852, "lon": 19.05465, "elevation": 46}, {"name": "Houston", "country": "", "type": "", "lat": 29.747390000000003, "lon": -95.28737, "elevation": 46}, {"name": "Pesterzs\u00e9bet", "country": "", "type": "", "lat": 47.43333, "lon": 19.116670000000003, "elevation": 46}, {"name": "Las Vegas", "country": "", "type": "", "lat": 36.114647, "lon": -115.17281299999999, "elevation": 44}, {"name": "Tisz\u00e1nt\u00fal", "country": "", "type": "", "lat": 47.0, "lon": 21.0, "elevation": 44}, {"name": "Budakal\u00e1sz", "country": "", "type": "", "lat": 47.6192785, "lon": 19.0468565, "elevation": 44}, {"name": "H\u00e9v\u00edz", "country": "", "type": "", "lat": 46.79060379999999, "lon": 17.1834489, "elevation": 44}, {"name": "Kong\u00f3", "country": "", "type": "", "lat": 46.817820000000005, "lon": 17.40693, "elevation": 44}, {"name": "V\u00e1rhegy", "country": "", "type": "", "lat": 48.2995574, "lon": 21.4516883, "elevation": 44}, {"name": "Sikl\u00f3s", "country": "", "type": "", "lat": 45.852096, "lon": 18.2981568, "elevation": 43}, {"name": "Mih\u00e1lyi", "country": "", "type": "", "lat": 47.5157574, "lon": 17.0950326, "elevation": 43}, {"name": "Darwin", "country": "", "type": "", "lat": -12.462827, "lon": 130.841782, "elevation": 43}, {"name": "Als\u00f3szentm\u00e1rton", "country": "", "type": "", "lat": 45.7909148, "lon": 18.3047873, "elevation": 43}, {"name": "Badacsony", "country": "", "type": "", "lat": 46.7937738, "lon": 17.509797100000004, "elevation": 42}, {"name": "Zirc", "country": "", "type": "", "lat": 47.2613795, "lon": 17.8718188, "elevation": 42}, {"name": "Dorog", "country": "", "type": "", "lat": 47.7223403, "lon": 18.7313867, "elevation": 42}, {"name": "Balaton-felvid\u00e9k", "country": "", "type": "", "lat": 46.91667, "lon": 17.75, "elevation": 42}, {"name": "Koml\u00f3s", "country": "", "type": "", "lat": 47.7097195, "lon": 18.399011, "elevation": 42}, {"name": "Bakony", "country": "", "type": "", "lat": 47.25, "lon": 17.83333, "elevation": 42}, {"name": "Austin", "country": "", "type": "", "lat": 30.267153000000004, "lon": -97.7430608, "elevation": 42}, {"name": "Koz\u00e1rmisleny", "country": "", "type": "", "lat": 46.0487525, "lon": 18.2860822, "elevation": 41}, {"name": "Sz\u00e1zhalombatta", "country": "", "type": "", "lat": 47.31719920000001, "lon": 18.9120948, "elevation": 41}, {"name": "Christchurch", "country": "", "type": "", "lat": -43.52565, "lon": 172.639847, "elevation": 41}, {"name": "Margit-sziget", "country": "", "type": "", "lat": 47.5267, "lon": 19.047829999999998, "elevation": 41}, {"name": "Mauthausen", "country": "", "type": "", "lat": 47.758990000000004, "lon": 12.90306, "elevation": 41}, {"name": "R\u00e9vf\u00fcl\u00f6p", "country": "", "type": "", "lat": 46.828315, "lon": 17.6303514, "elevation": 41}, {"name": "Atlanta", "country": "", "type": "", "lat": 33.7489954, "lon": -84.3879824, "elevation": 40}, {"name": "Peterborough", "country": "", "type": "", "lat": 42.87064, "lon": -71.95175, "elevation": 40}, {"name": "M\u00fcnzenberg", "country": "", "type": "", "lat": 50.4563, "lon": 8.7293, "elevation": 40}, {"name": "Dunkirk", "country": "", "type": "", "lat": 51.034368, "lon": 2.376776, "elevation": 39}, {"name": "Krajna", "country": "", "type": "", "lat": 46.69, "lon": 16.05056, "elevation": 39}, {"name": "Bicske", "country": "", "type": "", "lat": 47.4907066, "lon": 18.6358046, "elevation": 38}, {"name": "Csurg\u00f3", "country": "", "type": "", "lat": 47.8381461, "lon": 19.1668986, "elevation": 38}, {"name": "Fenyves", "country": "", "type": "", "lat": 46.9348498, "lon": 17.6724945, "elevation": 38}, {"name": "Utrecht", "country": "", "type": "", "lat": 52.092876000000004, "lon": 5.104480000000001, "elevation": 38}, {"name": "M\u00e1t\u00e9szalka", "country": "", "type": "", "lat": 47.9539113, "lon": 22.3208477, "elevation": 38}, {"name": "Graz", "country": "", "type": "", "lat": 47.07493, "lon": 15.44089, "elevation": 38}, {"name": "B\u00f6rzs\u00f6ny", "country": "", "type": "", "lat": 46.287028, "lon": 18.5597991, "elevation": 38}, {"name": "Phoenix", "country": "", "type": "", "lat": 33.448376, "lon": -112.074036, "elevation": 37}, {"name": "Glasgow", "country": "", "type": "", "lat": 55.860916, "lon": -4.2514330000000005, "elevation": 37}, {"name": "Hokkaido", "country": "", "type": "", "lat": 43.516690000000004, "lon": 142.44873, "elevation": 37}, {"name": "Mecsek", "country": "", "type": "", "lat": 46.639422, "lon": 18.0535811, "elevation": 37}, {"name": "Kanizsa", "country": "", "type": "", "lat": 46.879287, "lon": 18.1571343, "elevation": 37}, {"name": "Hegyk\u0151", "country": "", "type": "", "lat": 47.62170310000001, "lon": 16.7940826, "elevation": 37}, {"name": "G\u00f6teborg", "country": "", "type": "", "lat": 57.707159999999995, "lon": 11.96679, "elevation": 36}, {"name": "Nagymaros", "country": "", "type": "", "lat": 47.78911420000001, "lon": 18.9587262, "elevation": 36}, {"name": "Ag\u00e1rdi", "country": "", "type": "", "lat": 47.1660584, "lon": 18.6346147, "elevation": 36}, {"name": "Tripoli", "country": "", "type": "", "lat": 32.885353, "lon": 13.180160999999998, "elevation": 36}, {"name": "Jeli Arbor\u00e9tum", "country": "", "type": "", "lat": 47.0754345, "lon": 16.8928059, "elevation": 36}, {"name": "K\u00e9kes", "country": "", "type": "", "lat": 47.87191, "lon": 20.007089999999998, "elevation": 35}, {"name": "Vecs\u00e9s", "country": "", "type": "", "lat": 47.4094382, "lon": 19.2648259, "elevation": 35}, {"name": "B\u00e1bolna", "country": "", "type": "", "lat": 47.642224, "lon": 17.978746700000006, "elevation": 35}, {"name": "Lyon", "country": "", "type": "", "lat": 45.764043, "lon": 4.835659, "elevation": 35}, {"name": "Fert\u0151 t\u00f3", "country": "", "type": "", "lat": 47.7324, "lon": 16.71432, "elevation": 34}, {"name": "Oroszl\u00e1ny", "country": "", "type": "", "lat": 47.4897011, "lon": 18.3148401, "elevation": 34}, {"name": "Pennsylvania", "country": "", "type": "", "lat": 40.74994, "lon": -73.99122, "elevation": 34}, {"name": "Balassagyarmat", "country": "", "type": "", "lat": 48.07688320000001, "lon": 19.2926037, "elevation": 34}, {"name": "S\u00f3st\u00f3", "country": "", "type": "", "lat": 46.5107813, "lon": 20.5804055, "elevation": 33}, {"name": "Rijeka", "country": "", "type": "", "lat": 45.328979, "lon": 14.457664000000001, "elevation": 33}, {"name": "Rio De Janeiro", "country": "", "type": "", "lat": -22.90243, "lon": -43.17236, "elevation": 33}, {"name": "Davos", "country": "", "type": "", "lat": 46.804759999999995, "lon": 9.83723, "elevation": 33}, {"name": "Vancouver", "country": "", "type": "", "lat": 45.638729999999995, "lon": -122.66148999999999, "elevation": 33}, {"name": "Montpellier", "country": "", "type": "", "lat": 43.610769, "lon": 3.8767160000000005, "elevation": 33}, {"name": "K\u00f6tcse", "country": "", "type": "", "lat": 46.7518662, "lon": 17.8601652, "elevation": 32}, {"name": "Normafa", "country": "", "type": "", "lat": 47.5029967, "lon": 18.9663909, "elevation": 32}, {"name": "Dubrovnik", "country": "", "type": "", "lat": 43.16333, "lon": 18.96667, "elevation": 31}, {"name": "Sheffield", "country": "", "type": "", "lat": 53.381129, "lon": -1.470085, "elevation": 31}, {"name": "Nagykanizsa", "country": "", "type": "", "lat": 46.4548261, "lon": 16.992392300000002, "elevation": 31}, {"name": "Kisk\u00f6re", "country": "", "type": "", "lat": 47.4994568, "lon": 20.4925043, "elevation": 31}, {"name": "Ter\u00e9zv\u00e1ros", "country": "", "type": "", "lat": 47.5085165, "lon": 19.0651215, "elevation": 31}, {"name": "Nakama", "country": "", "type": "", "lat": 33.05556, "lon": 130.68845, "elevation": 30}, {"name": "Sarkad", "country": "", "type": "", "lat": 48.1904311, "lon": 21.2482489, "elevation": 30}, {"name": "Malm\u00f6", "country": "", "type": "", "lat": 58.65, "lon": 16.25, "elevation": 30}, {"name": "Szob", "country": "", "type": "", "lat": 47.8183245, "lon": 18.8727585, "elevation": 30}, {"name": "Nagyat\u00e1d", "country": "", "type": "", "lat": 46.229143, "lon": 17.357096399999996, "elevation": 30}, {"name": "Mez\u0151hegyes", "country": "", "type": "", "lat": 48.046704, "lon": 20.608712, "elevation": 30}, {"name": "Tisza\u00fajv\u00e1ros", "country": "", "type": "", "lat": 47.92803410000001, "lon": 21.046705600000006, "elevation": 29}, {"name": "Bangkok", "country": "", "type": "", "lat": 13.703520000000001, "lon": 100.57718, "elevation": 29}, {"name": "Dunaharaszti", "country": "", "type": "", "lat": 47.359976, "lon": 19.0953357, "elevation": 29}, {"name": "\u0150rmez\u0151", "country": "", "type": "", "lat": 47.4611541, "lon": 19.015881, "elevation": 29}, {"name": "V\u00e1rpalota", "country": "", "type": "", "lat": 47.198695, "lon": 18.138157, "elevation": 29}, {"name": "Maribor", "country": "", "type": "", "lat": 46.55472, "lon": 15.64667, "elevation": 29}, {"name": "Wolfsburg", "country": "", "type": "", "lat": 52.422650299999994, "lon": 10.786546099999999, "elevation": 29}, {"name": "Ipoly", "country": "", "type": "", "lat": 47.81807, "lon": 18.84843, "elevation": 29}, {"name": "Tallinn", "country": "", "type": "", "lat": 47.1836354, "lon": 20.2087891, "elevation": 29}, {"name": "Hajd\u00fab\u00f6sz\u00f6rm\u00e9ny", "country": "", "type": "", "lat": 47.6716617, "lon": 21.5078944, "elevation": 29}, {"name": "Kaba", "country": "", "type": "", "lat": 47.3576246, "lon": 21.2742641, "elevation": 28}, {"name": "Battonya", "country": "", "type": "", "lat": 46.2858683, "lon": 21.0218929, "elevation": 28}, {"name": "Pikes Peak", "country": "", "type": "", "lat": 45.9843, "lon": -118.1694, "elevation": 28}, {"name": "\u00dajlip\u00f3tv\u00e1ros", "country": "", "type": "", "lat": 47.51804110000001, "lon": 19.0543194, "elevation": 27}, {"name": "Zugliget", "country": "", "type": "", "lat": 47.5096537, "lon": 18.971238600000003, "elevation": 27}, {"name": "Missouri", "country": "", "type": "", "lat": 38.25031, "lon": -92.50046, "elevation": 27}, {"name": "Avas", "country": "", "type": "", "lat": 47.15205200000001, "lon": 17.0060456, "elevation": 27}, {"name": "Vill\u00e1ny", "country": "", "type": "", "lat": 45.8697644, "lon": 18.4555208, "elevation": 27}, {"name": "Bordeaux", "country": "", "type": "", "lat": 44.836151, "lon": -0.580816, "elevation": 27}, {"name": "Szent Istv\u00e1n Park", "country": "", "type": "", "lat": 47.226620000000004, "lon": 16.60493, "elevation": 26}, {"name": "Regensburg", "country": "", "type": "", "lat": 49.01681, "lon": 12.095360000000001, "elevation": 26}, {"name": "Z\u00e1hony", "country": "", "type": "", "lat": 48.4063743, "lon": 22.1778835, "elevation": 26}, {"name": "Szentgotth\u00e1rd", "country": "", "type": "", "lat": 46.952850700000006, "lon": 16.2748541, "elevation": 26}, {"name": "Cs\u00e1kv\u00e1r", "country": "", "type": "", "lat": 47.3918045, "lon": 18.464064, "elevation": 26}, {"name": "Balatonszemes", "country": "", "type": "", "lat": 46.806042, "lon": 17.7789908, "elevation": 26}, {"name": "Dunaf\u00f6ldv\u00e1r", "country": "", "type": "", "lat": 46.810432, "lon": 18.9222921, "elevation": 26}, {"name": "Gyurk\u00f3", "country": "", "type": "", "lat": 47.81667, "lon": 20.91667, "elevation": 26}, {"name": "Portsmouth", "country": "", "type": "", "lat": 50.842991, "lon": -1.101002, "elevation": 25}, {"name": "Sz\u00fcgy", "country": "", "type": "", "lat": 48.035482, "lon": 19.3239375, "elevation": 25}, {"name": "Menlo Park", "country": "", "type": "", "lat": 37.452961, "lon": -122.181725, "elevation": 25}, {"name": "Nicosia", "country": "", "type": "", "lat": 35.185565999999994, "lon": 33.382275, "elevation": 25}, {"name": "T\u00e1rnok", "country": "", "type": "", "lat": 47.3668787, "lon": 18.8660065, "elevation": 25}, {"name": "R\u00e1bak\u00f6z", "country": "", "type": "", "lat": 47.65, "lon": 17.21667, "elevation": 25}, {"name": "Heathrow", "country": "", "type": "", "lat": 51.47002, "lon": -0.454295, "elevation": 25}, {"name": "Lakitelek", "country": "", "type": "", "lat": 46.8736335, "lon": 20.0003712, "elevation": 25}, {"name": "P\u00e9cel", "country": "", "type": "", "lat": 47.4911201, "lon": 19.3446801, "elevation": 24}, {"name": "Hark\u00e1ny", "country": "", "type": "", "lat": 45.8477907, "lon": 18.2359978, "elevation": 24}, {"name": "Celld\u00f6m\u00f6lk", "country": "", "type": "", "lat": 47.2579643, "lon": 17.1521883, "elevation": 24}, {"name": "Woodstock", "country": "", "type": "", "lat": 34.101487299999995, "lon": -84.5193754, "elevation": 23}, {"name": "Kiskunf\u00e9legyh\u00e1za", "country": "", "type": "", "lat": 46.7113263, "lon": 19.8502905, "elevation": 23}, {"name": "K\u00e9kestet\u0151", "country": "", "type": "", "lat": 47.8720076, "lon": 20.0089994, "elevation": 23}, {"name": "Newcastle", "country": "", "type": "", "lat": 54.978252000000005, "lon": -1.61778, "elevation": 600}, {"name": "S\u00e1rospatak", "country": "", "type": "", "lat": 48.3216823, "lon": 21.5655524, "elevation": 23}, {"name": "Szigliget", "country": "", "type": "", "lat": 46.80143620000001, "lon": 17.4331745, "elevation": 23}, {"name": "Edinburgh", "country": "", "type": "", "lat": 55.953251, "lon": -3.1882669999999997, "elevation": 23}, {"name": "D\u00fcsseldorf", "country": "", "type": "", "lat": 51.224920000000004, "lon": 6.77425, "elevation": 23}, {"name": "Bagdad", "country": "", "type": "", "lat": 42.39028, "lon": 21.309720000000002, "elevation": 23}, {"name": "Cig\u00e1nd", "country": "", "type": "", "lat": 48.2615593, "lon": 21.8888754, "elevation": 22}, {"name": "Verona", "country": "", "type": "", "lat": 45.438384, "lon": 10.991622, "elevation": 22}, {"name": "Luxembourg", "country": "", "type": "", "lat": 49.611670000000004, "lon": 6.13, "elevation": 21}, {"name": "K\u00f6zv\u00e1g\u00f3h\u00edd", "country": "", "type": "", "lat": 46.85, "lon": 16.85, "elevation": 21}, {"name": "Csob\u00e1nka", "country": "", "type": "", "lat": 47.6436909, "lon": 18.9672147, "elevation": 21}, {"name": "P\u00fcsp\u00f6klad\u00e1ny", "country": "", "type": "", "lat": 47.3195803, "lon": 21.1123019, "elevation": 21}, {"name": "Rotterdam", "country": "", "type": "", "lat": 51.9244201, "lon": 4.4777325, "elevation": 21}, {"name": "Cs\u00f6m\u00f6r", "country": "", "type": "", "lat": 47.5489158, "lon": 19.2242144, "elevation": 21}]
